[
      {
         "id":"1",
         "name":"Oklahoma City, OK",
         "lat":"35.5672454066476",
         "lng":"-97.5668423096249",
         "category":"Millcreek",
         "address":"9509 N. May Avenue",
         "address2":"",
         "city":"North Oklahoma City",
         "state":"OK",
         "postal":"73120",
         "phone":"405-449-2850",
         "url":"https:\/\/www.millcreekcarpet.com/oklahoma-city-ok",
         "hours1":"",
         "hours2":"",
         "hours3":"",
         "featured":"",
         "features":"",
         "date":""
      },
      {
         "id":"2",
         "name":"41st St, Tulsa, OK",
         "lat":"36.10477854837608",
         "lng":"-95.89851662953971",
         "category":"Millcreek",
         "address":"6845 E. 41st Street",
         "address2":"",
         "city":"Tulsa",
         "state":"OK",
         "postal":"74145",
         "phone":"918-238-8938",
         "url":"https:\/\/www.millcreekcarpet.com/41st-st-tulsa-ok",
         "hours1":"",
         "hours2":"",
         "hours3":"",
         "featured":"",
         "features":"",
         "date":""
      },
      {
         "id":"3",
         "name":"S. Memorial, Tulsa, OK",
         "lat":"36.0267787779845",
         "lng":"-95.88697939165682",
         "category":"Millcreek",
         "address":"9342 S. Memorial Dr.",
         "address2":"",
         "city":"Tulsa",
         "state":"OK",
         "postal":"74133",
         "phone":"918-488-9300",
         "url":"https:\/\/www.millcreekcarpet.com/s-memorial-tulsa-ok",
         "hours1":"",
         "hours2":"",
         "hours3":"",
         "featured":"",
         "features":"",
         "date":""
      },
      {
         "id":"4",
         "name":"Tulsa, OK",
         "lat":"36.1311061624617",
         "lng":"-95.90632451964848",
         "category":"Millcreek",
         "address":"2150 S Sheridan Rd.",
         "address2":"",
         "city":"Tulsa",
         "state":"OK",
         "postal":"74129",
         "phone":"918-303-8925",
         "url":"https:\/\/www.millcreekcarpet.com/flooring-outlet-tulsa-ok",
         "hours1":"",
         "hours2":"",
         "hours3":"",
         "featured":"",
         "features":"",
         "date":""
      },
      {
         "id":"5",
         "name":"McAlester, OK",
         "lat":"34.928154",
         "lng":"-95.751007",
         "category":"Millcreek",
         "address":"1316 E Carl Albert Pkwy.",
         "address2":"",
         "city":"McAlester",
         "state":"OK",
         "postal":"74501",
         "phone":"918-771-2613",
         "url":"https:\/\/www.millcreekcarpet.com/mcalester-ok",
         "hours1":"",
         "hours2":"",
         "hours3":"",
         "featured":"",
         "features":"",
         "date":""
      },
      {
         "id":"6",
         "name":"Muskogee, OK",
         "lat":"35.770407",
         "lng":"-95.396632",
         "category":"Millcreek",
         "address":"2706 W Shawnee Bypass",
         "address2":"",
         "city":"Muskogee",
         "state":"OK",
         "postal":"74401",
         "phone":"918-687-8500",
         "url":"https:\/\/www.millcreekcarpet.com/muskogee-ok",
         "hours1":"",
         "hours2":"",
         "hours3":"",
         "featured":"",
         "features":"",
         "date":""
      },
      {
         "id":"7",
         "name":"Norman, OK",
         "lat":"35.219082",
         "lng":"-97.479043",
         "category":"Millcreek",
         "address":"2501 W. Main Street",
         "address2":"",
         "city":"Norman",
         "state":"OK",
         "postal":"73069",
         "phone":"405-353-9536",
         "url":"https:\/\/www.millcreekcarpet.com/norman-ok",
         "hours1":"",
         "hours2":"",
         "hours3":"",
         "featured":"",
         "features":"",
         "date":""
      },
      {
         "id":"8",
         "name":"Edmond, OK",
         "lat":"35.640933",
         "lng":"-97.482635",
         "category":"Millcreek",
         "address":"1200 South Broadway",
         "address2":"",
         "city":"Edmond",
         "state":"OK",
         "postal":"73034",
         "phone":"405-407-2332",
         "url":"https:\/\/www.millcreekcarpet.com/edmond-ok",
         "hours1":"",
         "hours2":"",
         "hours3":"",
         "featured":"",
         "features":"",
         "date":""
      },
      {
         "id":"9",
         "name":"Stillwater, OK",
         "lat":"36.14482942175572",
         "lng":"-97.06894850371043",
         "category":"Millcreek",
         "address":"2223 N. Boomer Rd.",
         "address2":"",
         "city":"Stillwater",
         "state":"OK",
         "postal":"74075",
         "phone":"405-331-6901",
         "url":"https:\/\/www.millcreekcarpet.com/stillwater-ok",
         "hours1":"",
         "hours2":"",
         "hours3":"",
         "featured":"",
         "features":"",
         "date":""
      },
      {
         "id":"10",
         "name":"Grove, OK",
         "lat":"36.60208966180351",
         "lng":"-94.79070981414463",
         "category":"Millcreek",
         "address":"2136 HWY 59 N.",
         "address2":"",
         "city":"Grove",
         "state":"OK",
         "postal":"74344",
         "phone":"918-303-8924",
         "url":"https:\/\/www.millcreekcarpet.com/grove-ok",
         "hours1":"",
         "hours2":"",
         "hours3":"",
         "featured":"",
         "features":"",
         "date":""
      },
      {
         "id":"11",
         "name":"Ardmore, OK",
         "lat":"34.20330559180006",
         "lng":"-97.14355457901402",
         "category":"Millcreek",
         "address":"1211 Veterans Blvd",
         "address2":"",
         "city":"Ardmore",
         "state":"OK",
         "postal":"73401",
         "phone":"580-307-6020",
         "url":"https:\/\/www.millcreekcarpet.com/ardmore-ok",
         "hours1":"",
         "hours2":"",
         "hours3":"",
         "featured":"",
         "features":"",
         "date":""
      },
      {
         "id":"12",
         "name":"Wichita, KS",
         "lat":"37.673379426151634",
         "lng":"-97.41704228725965",
         "category":"Millcreek",
         "address":"6422 W. Kellogg",
         "address2":"",
         "city":"Wichita",
         "state":"KS",
         "postal":"67209",
         "phone":"316-218-9475",
         "url":"https:\/\/www.millcreekcarpet.com/wichita-ks",
         "hours1":"",
         "hours2":"",
         "hours3":"",
         "featured":"",
         "features":"",
         "date":""
      },
      {
         "id":"13",
         "name":"Siloam Springs, AR",
         "lat":"36.181636958435014",
         "lng":"-94.520386631631",
         "category":"Millcreek",
         "address":"2055 E Main Street",
         "address2":"",
         "city":"Siloam Springs",
         "state":"AR",
         "postal":"72761",
         "phone":"479-524-0043",
         "url":"https:\/\/www.millcreekcarpet.com/siloam-springs-ar",
         "hours1":"",
         "hours2":"",
         "hours3":"",
         "featured":"",
         "features":"",
         "date":""
      },
      {
         "id":"14",
         "name":"Flooring America by CarpetSmart - Lowell",
         "lat":"36.26022989863649",
         "lng":"-94.1516167232998",
         "category":"Flooring-America",
         "address":"411 N Goad Springs Road, Suite 101",
         "address2":"",
         "city":"Lowell",
         "state":"AR",
         "postal":"72745",
         "phone":"877-653-5576",
         "url":"https:\/\/www.millcreekcarpet.com/lowell-ar",
         "hours1":"",
         "hours2":"",
         "hours3":"",
         "featured":"",
         "features":"",
         "date":""
      },
      {
         "id":"15",
         "name":"Reece Flooring",
         "lat":"35.43801655746806",
         "lng":"-96.90961782948918",
         "category":"Reece-Flooring",
         "address":"9587 N Harrison Ave",
         "address2":"",
         "city":"Shawnee",
         "state":"OK",
         "postal":"74804",
         "phone":"405-273-2317",
         "url":"https:\/\/www.millcreekcarpet.com/reeds-spring-mo",
         "hours1":"",
         "hours2":"",
         "hours3":"",
         "featured":"",
         "features":"",
         "date":""
      },
      {
         "id":"16",
         "name":"Billy Walker Carpets",
         "lat":"34.65102404146902",
         "lng":"-99.33138930547072",
         "category":"Billy-Walker",
         "address":"1214 N Grady St",
         "address2":"",
         "city":"Altus",
         "state":"OK",
         "postal":"73521",
         "phone":"405-273-2317",
         "url":"https:\/\/www.millcreekcarpet.com/billy-walker-carpets",
         "hours1":"",
         "hours2":"",
         "hours3":"",
         "featured":"",
         "features":"",
         "date":""
      },{
         "id":"17",
         "name":"Reeds Spring, MO",
         "lat":"36.68412853298906",
         "lng":"-93.38341610185043",
         "category":"Flooring-America",
         "address":"16838 State Hwy 13",
         "address2":"",
         "city":"Reeds Spring",
         "state":"MO",
         "postal":"65737",
         "phone":"417-272-8155",
         "url":"https:\/\/www.millcreekcarpet.com/reeds-spring-mo",
         "hours1":"",
         "hours2":"",
         "hours3":"",
         "featured":"",
         "features":"",
         "date":""
      },
      {
         "id":"18",
         "name":"Nixa, MO",
         "lat":"37.07689344234764",
         "lng":"-93.29402848277316",
         "category":"Flooring-America",
         "address":"1550 N Main",
         "address2":"",
         "city":"Nixa",
         "state":"MO",
         "postal":"65714",
         "phone":"417-724-2444",
         "url":"https:\/\/www.millcreekcarpet.com/nixa-mo",
         "hours1":"",
         "hours2":"",
         "hours3":"",
         "featured":"",
         "features":"",
         "date":""
      },
      {
         "id":"19",
         "name":"Branson, MO",
         "lat":"36.64452876713826",
         "lng":"-93.27245827116421",
         "category":"Flooring-America",
         "address":"562 North Gretna Road",
         "address2":"",
         "city":"Branson",
         "state":"MO",
         "postal":"65616",
         "phone":"417-334-8687",
         "url":"https:\/\/www.millcreekcarpet.com/branson-mo",
         "hours1":"",
         "hours2":"",
         "hours3":"",
         "featured":"",
         "features":"",
         "date":""
      }
   ]